{"version":0.6,"generator":"Overpass API 0.7.62.11 87bfad18","osm3s":{"timestamp_osm_base":"2026-05-05T09:19:27Z","copyright":"The data included in this document is from www.openstreetmap.org. The data is made available under ODbL."},"elements":[{"type":"way","id":572898605,"center":{"lat":69.4604737,"lon":20.9182578},"nodes":[5503808802,5503808801,5603121400,5603121399,5603121398,5603121401,5503808800,5603121402,5503808799,5503808802],"tags":{"barrier":"fence","name":"Guolášjohka trafostasjon","operator":"Arva","power":"substation","substation":"distribution","voltage":"132000;22000"}},{"type":"way","id":572898616,"center":{"lat":69.1898051,"lon":19.2042223},"nodes":[5605834339,5605834340,5605834341,5605834342,5605834343,5605834344,5605834345,5503809652,5605834346,5605834347,5605834348,5605834349,5605834350,5605834351,5605834353,5605834354,5605834355,5605834356,5605834357,5605834358,5605834359,5605834360,5605834361,5605834362,5605834363,5605834364,5605834365,5605834366,5503809651,5605834367,5503809650,10566967690,5605834368,5605834369,5503809649,5605834370,11043424721,5605834336,5605834337,5605834338,5605834322,5605834339],"tags":{"barrier":"fence","name":"Balsfjord trafostasjon","operator":"Statnett","power":"substation","substation":"transmission","voltage":"420000;132000"}},{"type":"way","id":586436581,"center":{"lat":69.6029966,"lon":19.821349},"nodes":[5603231336,5603231339,5603231338,5603231337,5603231332,5603231687,5603231336],"tags":{"building":"industrial","gas_insulated":"yes","location":"indoor","name":"Ullsfjord trafostasjon","operator":"Arva","power":"substation","substation":"distribution","voltage":"132000;22000"}},{"type":"relation","id":8280502,"center":{"lat":69.6223626,"lon":21.3142773},"members":[{"type":"way","ref":572898602,"role":"outer"},{"type":"way","ref":586427556,"role":"outer"},{"type":"way","ref":586427560,"role":"outer"}],"tags":{"name":"Nordreisa trafostasjon","operator":"Statnett;Vissi","power":"substation","substation":"distribution","type":"multipolygon","voltage":"132000;66000;22000"}},{"type":"relation","id":8280563,"center":{"lat":69.5893136,"lon":20.2713752},"members":[{"type":"way","ref":586436596,"role":"outer"},{"type":"way","ref":586436594,"role":"outer"},{"type":"way","ref":586436589,"role":"outer"},{"type":"way","ref":586436590,"role":"outer"}],"tags":{"name":"Lyngen trafostasjon","operator":"Arva","power":"substation","substation":"distribution","type":"multipolygon","voltage":"132000;22000"}},{"type":"relation","id":8283080,"center":{"lat":69.2102306,"lon":19.2437078},"members":[{"type":"way","ref":586743454,"role":"outer"},{"type":"way","ref":572898594,"role":"outer"},{"type":"way","ref":1026999471,"role":"outer"}],"tags":{"name":"Storsteinnes trafostasjon","operator":"Arva","power":"substation","substation":"distribution","type":"multipolygon","voltage":"132000;66000;22000"}},{"type":"relation","id":13009239,"center":{"lat":69.315249,"lon":20.3584768},"members":[{"type":"way","ref":572898595,"role":"outer"},{"type":"way","ref":966632388,"role":"outer"},{"type":"way","ref":586719134,"role":"outer"}],"tags":{"name":"Skibotn trafostasjon","operator":"Arva","power":"substation","substation":"distribution","type":"multipolygon","voltage":"132000;22000"}}]}